[{"id":1,"genre":"Drama|Mystery","title":"Blow-Up (Blowup)","language":"Kannada","longitude":-35.5000999,"latitude":-6.6906402,"price":100,"theatre_address":"67208 Cody Drive","theatre":"Abhinay Theatre"},
    {"id":2,"genre":"Documentary","title":"Look, Up in the Sky! The Amazing Story of Superman","language":"Kannada","longitude":-71.7296249,"latitude":19.5473723,"price":200,"theatre_address":"288 Hayes Park","theatre":"Urvashi"},
    {"id":3,"genre":"Drama|Thriller","title":"Perfect Storm, The","language":"Kannada","longitude":-75.431596,"latitude":6.027632,"price":300,"theatre_address":"367 Schurz Crossing","theatre":"Anjan Theatre"},
    {"id":4,"genre":"Comedy|Drama","title":"Aloha Summer","language":"Kannada","longitude":"117.62965","latitude":"29.00701","price":250,"theatre_address":"95452 Talisman Pass","theatre":"Aadarsh Theatre"},
    {"id":5,"genre":"Horror|Sci-Fi|Thriller|War","title":"Objective, The","language":"Hindi","longitude":21.3300873,"latitude":41.0377245,"price":550,"theatre_address":"545 Nevada Street Kormangla","theatre":"Forum Mall"},
    {"id":6,"genre":"Thriller","title":"Tie That Binds, The","language":"Hindi","longitude":36.5321926,"latitude":55.6691322,"price":250,"theatre_address":"42 Acker Point","theatre":"Gopalan"},
    {"id":7,"genre":"Crime|Drama|Thriller","title":"Shadow Dancer","language":"Hindi","longitude":41.9931328,"latitude":41.9208048,"price":350,"theatre_address":"89887 Mysore circle road","theatre":"Gopalan Sirsi"},
    {"id":8,"genre":"Documentary","title":"Junior Prom","language":"Nepali","longitude":5.8978018,"latitude":43.4945737,"price":150,"theatre_address":"92 Waxwing Alley","theatre":"Eshwari"},
    {"id":9,"genre":"Western","title":"Gunfight at Dodge City, The","language":"Malayalam","longitude":114.632886,"latitude":39.781583,"price":200,"theatre_address":"741 Clyde Gallagher Lane","theatre":"Kailash Theater"},
    {"id":10,"genre":"Drama","title":"Children of Invention","language":"Hindi","longitude":25.2361291,"latitude":54.7305189,"price":175,"theatre_address":"6 JC Road near Town Hall","theatre":"Poornima"},
    {"id":11,"genre":"Comedy","title":"Guide for the Married Man, A","language":"English","longitude":-46.7997801,"latitude":-21.9751571,"price":150,"theatre_address":"76711 Grasskamp Parkway","theatre":"Kamakya Theatre"},
    {"id":12,"genre":"Documentary","title":"American Hardcore","language":"Spanish","longitude":25.2361291,"latitude":54.7305189,"price":175,"theatre_address":"6 JC Road near Town Hall","theatre":"Poornima"},
    {"id":13,"genre":"Documentary","title":"Let the Good Times Roll","language":"Urdu","longitude":25.2361291,"latitude":54.7305189,"price":175,"theatre_address":"6 JC Road near Town Hall","theatre":"Poornima"},
    {"id":14,"genre":"Drama","title":"Chalk Garden, The","language":"Tamil","longitude":120.369492,"latitude":-8.5526865,"price":850,"theatre_address":"06064 Canary Park","theatre":"PVR Cinemas"},
    {"id":15,"genre":"Drama","title":"War Is Over, The (Guerre est finie, La)","language":"Telugu","longitude":120.369492,"latitude":-8.5526865,"price":850,"theatre_address":"06064 Canary Park","theatre":"PVR Cinemas"},
    {"id":16,"genre":"Comedy","title":"Hawks and Sparrows (Uccellacci e Uccellini)","language":"Malayalam","longitude":25.2361291,"latitude":54.7305189,"price":175,"theatre_address":"6 JC Road near Town Hall","theatre":"Poornima"},
    {"id":17,"genre":"Comedy","title":"That's Life","language":"Telugu","longitude":41.9931328,"latitude":41.9208048,"price":350,"theatre_address":"89887 Mysore circle road","theatre":"Gopalan Sirsi"},
    {"id":18,"genre":"Drama","title":"Love Sick (Legaturi bolnavicioase)","language":"Hindi","longitude":41.9931328,"latitude":41.9208048,"price":350,"theatre_address":"89887 Mysore circle road","theatre":"Gopalan Sirsi"},
    {"id":19,"genre":"(no genres listed)","title":"The Sex and Violence Family Hour","language":"Malayalam","longitude":21.3300873,"latitude":41.0377245,"price":550,"theatre_address":"545 Nevada Street Kormangla","theatre":"Forum Mall"},
    {"id":20,"genre":"Drama|Musical","title":"Center Stage","language":"Hindi","longitude":-65.2994788,"latitude":-24.1973637,"price":375,"theatre_address":"5392 Sachtjen Crossing","theatre":"Rex"},
    {"id":21,"genre":"Action|Drama|Mystery","title":"The Casino Murder Case","language":"Telugu","longitude":111.664316,"latitude":27.692542,"price":400,"theatre_address":"1 Pearson Avenue","theatre":"Cinepolis"},
    {"id":22,"genre":"Adventure|Documentary","title":"Touching the Void","language":"Bhojpuri","longitude":120.369492,"latitude":-8.5526865,"price":850,"theatre_address":"06064 Canary Park","theatre":"PVR Cinemas"},
    {"id":23,"genre":"Comedy|Drama|Romance","title":"Bridget Jones's Diary","language":"Nepali","longitude":-71.7296249,"latitude":19.5473723,"price":200,"theatre_address":"288 Hayes Park","theatre":"Urvashi"},
    {"id":24,"genre":"Romance","title":"Recipe for Love","language":"Korean","longitude":41.9931328,"latitude":41.9208048,"price":350,"theatre_address":"89887 Mysore circle road","theatre":"Gopalan Sirsi"},
    {"id":25,"genre":"Animation|Comedy|Drama|Mystery","title":"Consuming Spirits","language":"Chinese","longitude":41.9931328,"latitude":41.9208048,"price":350,"theatre_address":"89887 Mysore circle road","theatre":"Gopalan Sirsi"},
    {"id":26,"genre":"Drama|Musical","title":"Privilege","language":"Haryanvi","longitude":21.3300873,"latitude":41.0377245,"price":550,"theatre_address":"545 Nevada Street Kormangla","theatre":"Forum Mall"},
    {"id":27,"genre":"Action|Drama","title":"Falling Down","language":"Bhojpuri","longitude":-35.5000999,"latitude":-6.6906402,"price":100,"theatre_address":"67208 Cody Drive","theatre":"Abhinay Theatre"},
    {"id":28,"genre":"Comedy|Romance","title":"Two Night Stand","language":"Odissi","longitude":21.3300873,"latitude":41.0377245,"price":550,"theatre_address":"545 Nevada Street Kormangla","theatre":"Forum Mall"},
    {"id":29,"genre":"Comedy|Drama|Sci-Fi","title":"Generation P","language":"Punjabi","longitude":"117.62965","latitude":"29.00701","price":250,"theatre_address":"95452 Talisman Pass","theatre":"Aadarsh Theatre"},
    {"id":30,"genre":"Horror|Romance","title":"Squirm","language":"Gujarati","longitude":21.3300873,"latitude":41.0377245,"price":550,"theatre_address":"545 Nevada Street Kormangla","theatre":"Forum Mall"},
    {"id":31,"genre":"Drama|Film-Noir","title":"Human Desire","language":"Odissi","longitude":5.8978018,"latitude":43.4945737,"price":150,"theatre_address":"92 Waxwing Alley","theatre":"Eshwari"},
    {"id":32,"genre":"Documentary|War","title":"Body of War","language":"Odissi","longitude":21.3300873,"latitude":41.0377245,"price":550,"theatre_address":"545 Nevada Street Kormangla","theatre":"Forum Mall"},
    {"id":33,"genre":"Drama","title":"Zorn's Lemma","language":"Punjabi","longitude":5.8978018,"latitude":43.4945737,"price":150,"theatre_address":"92 Waxwing Alley","theatre":"Eshwari"},
    {"id":34,"genre":"Thriller","title":"Wilby Conspiracy, The","language":"Punjabi","longitude":-71.7296249,"latitude":19.5473723,"price":200,"theatre_address":"288 Hayes Park","theatre":"Urvashi"},
    {"id":35,"genre":"Horror","title":"Night of the Demons 2","language":"Punjabi","longitude":125.550288,"latitude":11.406883,"price":600,"theatre_address":"98013 Golf Avenue","theatre":"PVR"},
    {"id":36,"genre":"Comedy","title":"They Call Me Bruce? (a.k.a. A Fistful of Chopsticks)","language":"Haryanvi","longitude":5.380142,"latitude":43.3032794,"price":275,"theatre_address":"7567 Lawn Court","theatre":"Innovative Multiplex"},
    {"id":37,"genre":"Documentary","title":"Going Clear: Scientology and the Prison of Belief","language":"French","longitude":-77.63,"latitude":43.15,"price":245,"theatre_address":"2 Tilak Nagar above D-Mart Jaynagar","theatre":"Swagat Garuda"},
    {"id":38,"genre":"Drama","title":"Joyriders, The","language":"Urdu","longitude":111.664316,"latitude":27.692542,"price":400,"theatre_address":"1 Pearson Avenue","theatre":"Cinepolis"},
    {"id":39,"genre":"Adventure|Western","title":"Face to Face (Faccia a faccia)","language":"French","longitude":-77.63,"latitude":43.15,"price":245,"theatre_address":"2 Tilak Nagar above D-Mart Jaynagar","theatre":"Swagat Garuda"},
    {"id":40,"genre":"Comedy|Drama|Romance","title":"Love on the Run (Amour en fuite, L')","language":"Kannada","longitude":21.3300873,"latitude":41.0377245,"price":550,"theatre_address":"545 Nevada Street Kormangla","theatre":"Forum Mall"},
    {"id":41,"genre":"Documentary|Musical","title":"Grateful Dead Movie, The","language":"Kannada","longitude":41.9931328,"latitude":41.9208048,"price":350,"theatre_address":"89887 Mysore circle road","theatre":"Gopalan Sirsi"},
    {"id":42,"genre":"Mystery|Thriller","title":"Eyes of Laura Mars","language":"Telugu","longitude":"117.62965","latitude":"29.00701","price":250,"theatre_address":"95452 Talisman Pass","theatre":"Aadarsh Theatre"},
    {"id":43,"genre":"Comedy|Fantasy|Horror","title":"Vampire's Kiss","language":"Bengali","longitude":40.2177807,"latitude":55.6768605,"price":180,"theatre_address":"48527 Trailsway Court","theatre":"Vision"},
    {"id":44,"genre":"Animation|Children","title":"Clifford's Really Big Movie","language":"French","longitude":40.2177807,"latitude":55.6768605,"price":180,"theatre_address":"835 Washington Junction","theatre":"Vision"},
    {"id":45,"genre":"Action|Sci-Fi","title":"City Under Siege (Chun sing gai bei)","language":"Hindi","longitude":110.496593,"latitude":24.77848,"price":100,"theatre_address":"10889 Loftsgordon Plaza","theatre":"Balaji Theatre"},
    {"id":46,"genre":"Drama|War","title":"Ararat","language":"Bengali","longitude":40.2177807,"latitude":55.6768605,"price":180,"theatre_address":"59798 Spaight Park","theatre":"Vision"},
    {"id":47,"genre":"Comedy","title":"Louis C.K.: Live at the Beacon Theater","language":"English","longitude":111.664316,"latitude":27.692542,"price":400,"theatre_address":"1 Pearson Avenue","theatre":"Cinepolis"},
    {"id":48,"genre":"Western","title":"Comin' at Ya!","language":"Haryanvi","longitude":40.2177807,"latitude":55.6768605,"price":180,"theatre_address":"4 Brentwood Trail","theatre":"Vision"},
    {"id":49,"genre":"Comedy|Drama|Fantasy|Mystery|Sci-Fi|Thriller","title":"Slipstream","language":"French","longitude":"48.86667","latitude":"-13.5","price":100,"theatre_address":"21025 Cody Avenue","theatre":"Stringtough"},
    {"id":50,"genre":"Drama","title":"Autumn Afternoon, An (Sanma no aji)","language":"English","longitude":21.3300873,"latitude":41.0377245,"price":550,"theatre_address":"545 Nevada Street Kormangla","theatre":"Forum Mall"},
    {"id":51,"genre":"Comedy","title":"Monty Python's Life of Brian","language":"French","longitude":111.664316,"latitude":27.692542,"price":400,"theatre_address":"1 Pearson Avenue","theatre":"Cinepolis"},
    {"id":52,"genre":"Drama","title":"Besieged (a.k.a. L' Assedio)","language":"English","longitude":-3.1605843,"latitude":53.3758568,"price":100,"theatre_address":"676 Rajkumar Road near rajajinagar metro station","theatre":"Navratan"},
    {"id":53,"genre":"Drama","title":"Quitting (Zuotian)","language":"Nepali","longitude":-77.63,"latitude":43.15,"price":245,"theatre_address":"2 Tilak Nagar above D-Mart Jaynagar","theatre":"Swagat Garuda"},
    {"id":54,"genre":"Comedy|Drama","title":"The Chumscrubber","language":"Haryanvi","longitude":21.3300873,"latitude":41.0377245,"price":550,"theatre_address":"545 Nevada Street Kormangla","theatre":"Forum Mall"},
    {"id":55,"genre":"Action|Crime|Drama","title":"State Property 2","language":"Haryanvi","longitude":21.3300873,"latitude":41.0377245,"price":550,"theatre_address":"545 Nevada Street Kormangla","theatre":"Forum Mall"},
    {"id":56,"genre":"Children|Drama","title":"Christmas Memory, A (Truman Capote's 'A Christmas Memory')","language":"Chinese","longitude":-65.2994788,"latitude":-24.1973637,"price":375,"theatre_address":"5392 Sachtjen Crossing","theatre":"Rex"},
    {"id":57,"genre":"Documentary","title":"Botany of Desire, The","language":"Amharic","longitude":21.3300873,"latitude":41.0377245,"price":550,"theatre_address":"545 Nevada Street Kormangla","theatre":"Forum Mall"},
    {"id":58,"genre":"Comedy|Drama|Romance","title":"Saratoga","language":"Marathi","longitude":111.664316,"latitude":27.692542,"price":400,"theatre_address":"1 Pearson Avenue","theatre":"Cinepolis"},
    {"id":59,"genre":"Thriller","title":"Tie That Binds, The","language":"Kannada","longitude":41.9931328,"latitude":41.9208048,"price":350,"theatre_address":"89887 Mysore circle road","theatre":"Gopalan Sirsi"},
    {"id":60,"genre":"Comedy","title":"French Fried Vacation 2 (Les bronzés font du ski)","language":"Czech","longitude":-65.2994788,"latitude":-24.1973637,"price":375,"theatre_address":"5392 Sachtjen Crossing","theatre":"Rex"},
    {"id":61,"genre":"Action|Sci-Fi|Thriller","title":"Godzilla","language":"English","longitude":-3.1605843,"latitude":53.3758568,"price":100,"theatre_address":"676 Rajkumar Road near rajajinagar metro station","theatre":"Navratan"},
    {"id":62,"genre":"Drama","title":"Boy Eating the Bird's Food (To agori troei to fagito tou pouliou)","language":"Bengali","longitude":120.369492,"latitude":-8.5526865,"price":850,"theatre_address":"06064 Canary Park","theatre":"PVR Cinemas"},
    {"id":63,"genre":"Drama","title":"Danton","language":"Hebrew","longitude":40.2177807,"latitude":55.6768605,"price":180,"theatre_address":"93 Green Ridge Alley","theatre":"Vision"},
    {"id":64,"genre":"Action|Drama","title":"Shakthi: The Power","language":"Japanese","longitude":-71.7296249,"latitude":19.5473723,"price":200,"theatre_address":"288 Hayes Park","theatre":"Urvashi"},
    {"id":65,"genre":"Horror|Mystery","title":"Reincarnation","language":"Moldovan","longitude":-35.5000999,"latitude":-6.6906402,"price":100,"theatre_address":"67208 Cody Drive","theatre":"Abhinay Theatre"},
    {"id":66,"genre":"Drama|Romance","title":"Cousins in Love (a.k.a. Tender Cousins) (Tendres Cousines)","language":"Zulu","longitude":116.948097,"latitude":40.381657,"theatre_address":"676 Rajkumar Road near rajajinagar metro station","theatre":"Navratan"},
    {"id":67,"genre":"Comedy|Fantasy|Horror","title":"Leprechaun 2","language":"Khmer","longitude":-77.63,"latitude":43.15,"price":245,"theatre_address":"2 Tilak Nagar above D-Mart Jaynagar","theatre":"Swagat Garuda"},
    {"id":68,"genre":"Crime|Drama","title":"Little Caesar","language":"Bislama","longitude":21.3300873,"latitude":41.0377245,"price":550,"theatre_address":"545 Nevada Street Kormangla","theatre":"Forum Mall"},
    {"id":69,"genre":"Comedy|Drama|Fantasy|Sci-Fi","title":"Simone (S1m0ne)","language":"French","longitude":-65.2994788,"latitude":-24.1973637,"price":375,"theatre_address":"5392 Sachtjen Crossing","theatre":"Rex"},
    {"id":70,"genre":"Thriller","title":"Love Sick Love","language":"French","longitude":111.664316,"latitude":27.692542,"price":400,"theatre_address":"1 Pearson Avenue","theatre":"Cinepolis"},
    {"id":71,"genre":"Horror|Sci-Fi|Thriller","title":"Children of the Damned","language":"Hindi","longitude":-77.63,"latitude":43.15,"price":245,"theatre_address":"2 Tilak Nagar above D-Mart Jaynagar","theatre":"Swagat Garuda"},
    {"id":72,"genre":"Sci-Fi","title":"This Island Earth","language":"Kannada","longitude":"117.62965","latitude":"29.00701","price":250,"theatre_address":"95452 Talisman Pass","theatre":"Aadarsh Theatre"},
    {"id":73,"genre":"Drama|Romance","title":"Dangerous Liaisons","language":"Assamese","longitude":111.664316,"latitude":27.692542,"price":400,"theatre_address":"1 Pearson Avenue","theatre":"Cinepolis"},
    {"id":74,"genre":"Drama|Musical|Romance","title":"Pure Country","language":"English","longitude":-77.63,"latitude":43.15,"price":245,"theatre_address":"2 Tilak Nagar above D-Mart Jaynagar","theatre":"Swagat Garuda"},
    {"id":75,"genre":"Crime|Drama|Mystery","title":"Bubble","language":"Hindi","longitude":-77.63,"latitude":43.15,"price":245,"theatre_address":"2 Tilak Nagar above D-Mart Jaynagar","theatre":"Swagat Garuda"},
    {"id":76,"genre":"Horror|Mystery|Thriller","title":"Black Christmas","language":"English","longitude":-77.63,"latitude":43.15,"price":245,"theatre_address":"2 Tilak Nagar above D-Mart Jaynagar","theatre":"Swagat Garuda"},
    {"id":77,"genre":"Drama|War","title":"Aerial Gunner","language":"Telugu","longitude":-3.1605843,"latitude":53.3758568,"price":100,"theatre_address":"676 Rajkumar Road near rajajinagar metro station","theatre":"Navratan"},
    {"id":78,"genre":"Adventure|Children|Fantasy","title":"Journey to the Beginning of Time","language":"Telugu","longitude":-77.63,"latitude":43.15,"price":245,"theatre_address":"2 Tilak Nagar above D-Mart Jaynagar","theatre":"Swagat Garuda"},
    {"id":79,"genre":"Comedy|Drama","title":"High Heels (Tacones lejanos)","language":"Tamil","longitude":21.3300873,"latitude":41.0377245,"price":550,"theatre_address":"545 Nevada Street Kormangla","theatre":"Forum Mall"},
    {"id":80,"genre":"Action","title":"Attila (Attila Flagello di Dio)","language":"Gujarati","longitude":-3.1605843,"latitude":53.3758568,"price":100,"theatre_address":"676 Rajkumar Road near rajajinagar metro station","theatre":"Navratan"},
    {"id":81,"genre":"Animation|Comedy","title":"Werner - Gekotzt wird später","language":"Urdu","longitude":21.3300873,"latitude":41.0377245,"price":550,"theatre_address":"545 Nevada Street Kormangla","theatre":"Forum Mall"},
    {"id":82,"genre":"Drama","title":"King Kelly","language":"Marathi","longitude":111.664316,"latitude":27.692542,"price":400,"theatre_address":"7 Sycamore Junction","theatre":"Cinepolis"},
    {"id":83,"genre":"Documentary","title":"Carcasses","language":"Hindi","longitude":5.380142,"latitude":43.3032794,"price":275,"theatre_address":"0 Chive Circle","theatre":"Innovative Multiplex"},
    {"id":84,"genre":"Drama|Romance","title":"St. Elmo's Fire","language":"Marathi","longitude":111.664316,"latitude":27.692542,"price":400,"theatre_address":"7 Sycamore Junction","theatre":"Cinepolis"},
    {"id":85,"genre":"Drama|War","title":"Black Rain (Kuroi ame)","language":"Chinese","longitude":111.664316,"latitude":27.692542,"price":400,"theatre_address":"7 Sycamore Junction","theatre":"Cinepolis"},
    {"id":86,"genre":"Documentary","title":"perfect","language":"Urdu","longitude":-3.1605843,"latitude":53.3758568,"price":100,"theatre_address":"676 Rajkumar Road near rajajinagar metro station","theatre":"Navratan"},    
    {"id":87,"genre":"Drama|Fantasy","title":"Bathory","language":"Urdu","longitude":-3.1605843,"latitude":53.3758568,"price":100,"theatre_address":"676 Rajkumar Road near rajajinagar metro station","theatre":"Navratan"},
    {"id":88,"genre":"Horror","title":"Asylum","language":"Odissi","longitude":"117.62965","latitude":"29.00701","price":250,"theatre_address":"95452 Talisman Pass","theatre":"Aadarsh Theatre"},
    {"id":89,"genre":"Comedy","title":"Happy Weekend","language":"Punjabi","longitude":111.664316,"latitude":27.692542,"price":400,"theatre_address":"7 Sycamore Junction","theatre":"Cinepolis"},
    {"id":90,"genre":"Documentary","title":"Forever","language":"Marathi","longitude":21.3300873,"latitude":41.0377245,"price":550,"theatre_address":"545 Nevada Street Kormangla","theatre":"Forum Mall"},
    {"id":91,"genre":"Drama","title":"How I Ended This Summer (Kak ya provyol etim letom)","language":"Marathi","longitude":-65.2994788,"latitude":-24.1973637,"price":375,"theatre_address":"5392 Sachtjen Crossing","theatre":"Rex"},
    {"id":92,"genre":"Drama","title":"Charlie's Country","language":"Marathi","longitude":25.2361291,"latitude":54.7305189,"price":175,"theatre_address":"6 JC Road near Town Hall","theatre":"Poornima"},
    {"id":93,"genre":"Drama|Mystery|Thriller","title":"Charlie Chan in City in Darkness","language":"Hindi","longitude":-65.2994788,"latitude":-24.1973637,"price":375,"theatre_address":"5392 Sachtjen Crossing","theatre":"Rex"},
    {"id":94,"genre":"Drama","title":"Big Bad Love","language":"Marathi","longitude":21.3300873,"latitude":41.0377245,"price":550,"theatre_address":"545 Nevada Street Kormangla","theatre":"Forum Mall"},
    {"id":95,"genre":"Crime|Drama|Mystery","title":"Rashomon (Rashômon)","language":"Gujarati","longitude":5.380142,"latitude":43.3032794,"price":275,"theatre_address":"0 Chive Circle","theatre":"Innovative Multiplex"},
    {"id":96,"genre":"Crime|Drama|Thriller","title":"Kill Me Again","language":"Gujarati","longitude":-75.431596,"latitude":6.027632,"price":300,"theatre_address":"367 Schurz Crossing","theatre":"Anjan Theatre"},
    {"id":97,"genre":"Documentary|War","title":"Lessons of Darkness (Lektionen in Finsternis)","language":"Bengali","longitude":110.496593,"latitude":24.77848,"price":100,"theatre_address":"10889 Loftsgordon Plaza","theatre":"Balaji Theatre"},
    {"id":98,"genre":"Animation|Comedy","title":"Wallace and Gromit in 'A Matter of Loaf and Death'","language":"Gujarati","longitude":-65.2994788,"latitude":-24.1973637,"price":375,"theatre_address":"5392 Sachtjen Crossing","theatre":"Rex"},
    {"id":99,"genre":"Drama","title":"Higher Ground","language":"Bengali","longitude":111.664316,"latitude":27.692542,"price":400,"theatre_address":"7 Sycamore Junction","theatre":"Cinepolis"},
    {"id":100,"genre":"Comedy|Romance","title":"New in Town","language":"Telugu","longitude":29.8126551,"latitude":50.4573262,"price":50,"theatre_address":"285 Pawling Pass","theatre":"Abhiman Theatre"}]